[
    {
        "name": "Goroka Airport",
        "city": "Goroka",
        "country": "Papua New Guinea",
        "code": "GKA",
        "latitude": -6.081689834590001,
        "longitude": 145.391998291,
        "altitude": 5282.0
    },
    {
        "name": "Madang Airport",
        "city": "Madang",
        "country": "Papua New Guinea",
        "code": "MAG",
        "latitude": -5.20707988739,
        "longitude": 145.789001465,
        "altitude": 20.0
    },
    {
        "name": "Mount Hagen Kagamuga Airport",
        "city": "Mount Hagen",
        "country": "Papua New Guinea",
        "code": "HGU",
        "latitude": -5.826789855957031,
        "longitude": 144.29600524902344,
        "altitude": 5388.0
    },
    {
        "name": "Nadzab Airport",
        "city": "Nadzab",
        "country": "Papua New Guinea",
        "code": "LAE",
        "latitude": -6.569803,
        "longitude": 146.725977,
        "altitude": 239.0
    },
    {
        "name": "Port Moresby Jacksons International Airport",
        "city": "Port Moresby",
        "country": "Papua New Guinea",
        "code": "POM",
        "latitude": -9.443380355834961,
        "longitude": 147.22000122070312,
        "altitude": 146.0
    },
    {
        "name": "Wewak International Airport",
        "city": "Wewak",
        "country": "Papua New Guinea",
        "code": "WWK",
        "latitude": -3.58383011818,
        "longitude": 143.669006348,
        "altitude": 19.0
    },
    {
        "name": "Narsarsuaq Airport",
        "city": "Narssarssuaq",
        "country": "Greenland",
        "code": "UAK",
        "latitude": 61.1604995728,
        "longitude": -45.4259986877,
        "altitude": 112.0
    },
    {
        "name": "Godthaab / Nuuk Airport",
        "city": "Godthaab",
        "country": "Greenland",
        "code": "GOH",
        "latitude": 64.19090271,
        "longitude": -51.6781005859,
        "altitude": 283.0
    },
    {
        "name": "Kangerlussuaq Airport",
        "city": "Sondrestrom",
        "country": "Greenland",
        "code": "SFJ",
        "latitude": 67.0122218992,
        "longitude": -50.7116031647,
        "altitude": 165.0
    },
    {
        "name": "Thule Air Base",
        "city": "Thule",
        "country": "Greenland",
        "code": "THU",
        "latitude": 76.5311965942,
        "longitude": -68.7032012939,
        "altitude": 251.0
    },
    {
        "name": "Akureyri Airport",
        "city": "Akureyri",
        "country": "Iceland",
        "code": "AEY",
        "latitude": 65.66000366210938,
        "longitude": -18.07270050048828,
        "altitude": 6.0
    },
    {
        "name": "Egilssta\u00f0ir Airport",
        "city": "Egilsstadir",
        "country": "Iceland",
        "code": "EGS",
        "latitude": 65.2833023071289,
        "longitude": -14.401399612426758,
        "altitude": 76.0
    },
    {
        "name": "Hornafj\u00f6r\u00f0ur Airport",
        "city": "Hofn",
        "country": "Iceland",
        "code": "HFN",
        "latitude": 64.295601,
        "longitude": -15.2272,
        "altitude": 24.0
    },
    {
        "name": "H\u00fasav\u00edk Airport",
        "city": "Husavik",
        "country": "Iceland",
        "code": "HZK",
        "latitude": 65.952301,
        "longitude": -17.426001,
        "altitude": 48.0
    },
    {
        "name": "\u00cdsafj\u00f6r\u00f0ur Airport",
        "city": "Isafjordur",
        "country": "Iceland",
        "code": "IFJ",
        "latitude": 66.05809783935547,
        "longitude": -23.135299682617188,
        "altitude": 8.0
    },
    {
        "name": "Keflavik International Airport",
        "city": "Keflavik",
        "country": "Iceland",
        "code": "KEF",
        "latitude": 63.985000610352,
        "longitude": -22.605600357056,
        "altitude": 171.0
    },
    {
        "name": "Patreksfj\u00f6r\u00f0ur Airport",
        "city": "Patreksfjordur",
        "country": "Iceland",
        "code": "PFJ",
        "latitude": 65.555801,
        "longitude": -23.965,
        "altitude": 11.0
    },
    {
        "name": "Reykjavik Airport",
        "city": "Reykjavik",
        "country": "Iceland",
        "code": "RKV",
        "latitude": 64.1299972534,
        "longitude": -21.9405994415,
        "altitude": 48.0
    },
    {
        "name": "Siglufj\u00f6r\u00f0ur Airport",
        "city": "Siglufjordur",
        "country": "Iceland",
        "code": "SIJ",
        "latitude": 66.133301,
        "longitude": -18.9167,
        "altitude": 10.0
    },
    {
        "name": "Vestmannaeyjar Airport",
        "city": "Vestmannaeyjar",
        "country": "Iceland",
        "code": "VEY",
        "latitude": 63.42430114746094,
        "longitude": -20.278900146484375,
        "altitude": 326.0
    },
    {
        "name": "Sault Ste Marie Airport",
        "city": "Sault Sainte Marie",
        "country": "Canada",
        "code": "YAM",
        "latitude": 46.48500061035156,
        "longitude": -84.5093994140625,
        "altitude": 630.0
    },
    {
        "name": "Winnipeg / St. Andrews Airport",
        "city": "Winnipeg",
        "country": "Canada",
        "code": "\\N",
        "latitude": 50.0564002991,
        "longitude": -97.03250122070001,
        "altitude": 760.0
    },
    {
        "name": "Halifax / CFB Shearwater Heliport",
        "city": "Halifax",
        "country": "Canada",
        "code": "\\N",
        "latitude": 44.639702,
        "longitude": -63.499401,
        "altitude": 144.0
    },
    {
        "name": "St. Anthony Airport",
        "city": "St. Anthony",
        "country": "Canada",
        "code": "YAY",
        "latitude": 51.3918991089,
        "longitude": -56.083099365200006,
        "altitude": 108.0
    },
    {
        "name": "Tofino / Long Beach Airport",
        "city": "Tofino",
        "country": "Canada",
        "code": "YAZ",
        "latitude": 49.079833,
        "longitude": -125.775583,
        "altitude": 80.0
    },
    {
        "name": "Kugaaruk Airport",
        "city": "Pelly Bay",
        "country": "Canada",
        "code": "YBB",
        "latitude": 68.534401,
        "longitude": -89.808098,
        "altitude": 56.0
    },
    {
        "name": "Baie Comeau Airport",
        "city": "Baie Comeau",
        "country": "Canada",
        "code": "YBC",
        "latitude": 49.13249969482422,
        "longitude": -68.20439910888672,
        "altitude": 71.0
    },
    {
        "name": "CFB Bagotville",
        "city": "Bagotville",
        "country": "Canada",
        "code": "YBG",
        "latitude": 48.33060073852539,
        "longitude": -70.99639892578125,
        "altitude": 522.0
    },
    {
        "name": "Baker Lake Airport",
        "city": "Baker Lake",
        "country": "Canada",
        "code": "YBK",
        "latitude": 64.29889678960001,
        "longitude": -96.077796936,
        "altitude": 59.0
    },
    {
        "name": "Campbell River Airport",
        "city": "Campbell River",
        "country": "Canada",
        "code": "YBL",
        "latitude": 49.950801849365234,
        "longitude": -125.27100372314453,
        "altitude": 346.0
    },
    {
        "name": "Brandon Municipal Airport",
        "city": "Brandon",
        "country": "Canada",
        "code": "YBR",
        "latitude": 49.91,
        "longitude": -99.951897,
        "altitude": 1343.0
    },
    {
        "name": "Cambridge Bay Airport",
        "city": "Cambridge Bay",
        "country": "Canada",
        "code": "YCB",
        "latitude": 69.1081008911,
        "longitude": -105.138000488,
        "altitude": 90.0
    },
    {
        "name": "Nanaimo Airport",
        "city": "Nanaimo",
        "country": "Canada",
        "code": "YCD",
        "latitude": 49.054970224899996,
        "longitude": -123.869862556,
        "altitude": 92.0
    },
    {
        "name": "Castlegar/West Kootenay Regional Airport",
        "city": "Castlegar",
        "country": "Canada",
        "code": "YCG",
        "latitude": 49.2963981628,
        "longitude": -117.632003784,
        "altitude": 1624.0
    },
    {
        "name": "Miramichi Airport",
        "city": "Chatham",
        "country": "Canada",
        "code": "YCH",
        "latitude": 47.007801,
        "longitude": -65.449203,
        "altitude": 108.0
    },
    {
        "name": "Charlo Airport",
        "city": "Charlo",
        "country": "Canada",
        "code": "YCL",
        "latitude": 47.990799,
        "longitude": -66.330299,
        "altitude": 132.0
    },
    {
        "name": "Kugluktuk Airport",
        "city": "Coppermine",
        "country": "Canada",
        "code": "YCO",
        "latitude": 67.816704,
        "longitude": -115.143997,
        "altitude": 74.0
    },
    {
        "name": "Coronation Airport",
        "city": "Coronation",
        "country": "Canada",
        "code": "YCT",
        "latitude": 52.0750007629,
        "longitude": -111.444999695,
        "altitude": 2595.0
    },
    {
        "name": "Chilliwack Airport",
        "city": "Chilliwack",
        "country": "Canada",
        "code": "YCW",
        "latitude": 49.1528015137,
        "longitude": -121.939002991,
        "altitude": 32.0
    },
    {
        "name": "Clyde River Airport",
        "city": "Clyde River",
        "country": "Canada",
        "code": "YCY",
        "latitude": 70.4860992432,
        "longitude": -68.5167007446,
        "altitude": 87.0
    },
    {
        "name": "Coral Harbour Airport",
        "city": "Coral Harbour",
        "country": "Canada",
        "code": "YZS",
        "latitude": 64.1932983398,
        "longitude": -83.3593978882,
        "altitude": 210.0
    },
    {
        "name": "Dawson City Airport",
        "city": "Dawson",
        "country": "Canada",
        "code": "YDA",
        "latitude": 64.04309844970703,
        "longitude": -139.1280059814453,
        "altitude": 1215.0
    },
    {
        "name": "Burwash Airport",
        "city": "Burwash",
        "country": "Canada",
        "code": "YDB",
        "latitude": 61.37110137939453,
        "longitude": -139.04100036621094,
        "altitude": 2647.0
    },
    {
        "name": "Princeton Airport",
        "city": "Princeton",
        "country": "Canada",
        "code": "\\N",
        "latitude": 49.4681015015,
        "longitude": -120.511001587,
        "altitude": 2298.0
    },
    {
        "name": "Deer Lake Airport",
        "city": "Deer Lake",
        "country": "Canada",
        "code": "YDF",
        "latitude": 49.21080017089844,
        "longitude": -57.39139938354492,
        "altitude": 72.0
    },
    {
        "name": "Dease Lake Airport",
        "city": "Dease Lake",
        "country": "Canada",
        "code": "YDL",
        "latitude": 58.4221992493,
        "longitude": -130.031997681,
        "altitude": 2600.0
    },
    {
        "name": "Dauphin Barker Airport",
        "city": "Dauphin",
        "country": "Canada",
        "code": "YDN",
        "latitude": 51.100799560546875,
        "longitude": -100.052001953125,
        "altitude": 999.0
    },
    {
        "name": "Dawson Creek Airport",
        "city": "Dawson Creek",
        "country": "Canada",
        "code": "YDQ",
        "latitude": 55.7422981262207,
        "longitude": -120.18299865722656,
        "altitude": 2148.0
    },
    {
        "name": "Edmonton International Airport",
        "city": "Edmonton",
        "country": "Canada",
        "code": "YEG",
        "latitude": 53.309700012200004,
        "longitude": -113.580001831,
        "altitude": 2373.0
    },
    {
        "name": "Arviat Airport",
        "city": "Eskimo Point",
        "country": "Canada",
        "code": "YEK",
        "latitude": 61.0942001343,
        "longitude": -94.07080078119999,
        "altitude": 32.0
    },
    {
        "name": "Estevan Airport",
        "city": "Estevan",
        "country": "Canada",
        "code": "YEN",
        "latitude": 49.2103004456,
        "longitude": -102.966003418,
        "altitude": 1905.0
    },
    {
        "name": "Edson Airport",
        "city": "Edson",
        "country": "Canada",
        "code": "YET",
        "latitude": 53.578899383499994,
        "longitude": -116.464996338,
        "altitude": 3043.0
    },
    {
        "name": "Eureka Airport",
        "city": "Eureka",
        "country": "Canada",
        "code": "YEU",
        "latitude": 79.9946975708,
        "longitude": -85.814201355,
        "altitude": 256.0
    },
    {
        "name": "Inuvik Mike Zubko Airport",
        "city": "Inuvik",
        "country": "Canada",
        "code": "YEV",
        "latitude": 68.30419921880001,
        "longitude": -133.483001709,
        "altitude": 224.0
    },
    {
        "name": "Iqaluit Airport",
        "city": "Iqaluit",
        "country": "Canada",
        "code": "YFB",
        "latitude": 63.756402,
        "longitude": -68.555801,
        "altitude": 110.0
    },
    {
        "name": "Fredericton Airport",
        "city": "Fredericton",
        "country": "Canada",
        "code": "YFC",
        "latitude": 45.868900299072266,
        "longitude": -66.53720092773438,
        "altitude": 68.0
    },
    {
        "name": "Forestville Airport",
        "city": "Forestville",
        "country": "Canada",
        "code": "YFE",
        "latitude": 48.74610137939453,
        "longitude": -69.09719848632812,
        "altitude": 293.0
    },
    {
        "name": "Flin Flon Airport",
        "city": "Flin Flon",
        "country": "Canada",
        "code": "YFO",
        "latitude": 54.6781005859375,
        "longitude": -101.68199920654297,
        "altitude": 997.0
    },
    {
        "name": "Fort Resolution Airport",
        "city": "Fort Resolution",
        "country": "Canada",
        "code": "YFR",
        "latitude": 61.1808013916,
        "longitude": -113.690002441,
        "altitude": 526.0
    },
    {
        "name": "Fort Simpson Airport",
        "city": "Fort Simpson",
        "country": "Canada",
        "code": "YFS",
        "latitude": 61.76020050048828,
        "longitude": -121.23699951171875,
        "altitude": 555.0
    },
    {
        "name": "Kingston Norman Rogers Airport",
        "city": "Kingston",
        "country": "Canada",
        "code": "YGK",
        "latitude": 44.22529983520508,
        "longitude": -76.5969009399414,
        "altitude": 305.0
    },
    {
        "name": "La Grande Rivi\u00e8re Airport",
        "city": "La Grande Riviere",
        "country": "Canada",
        "code": "YGL",
        "latitude": 53.625301361083984,
        "longitude": -77.7042007446289,
        "altitude": 639.0
    },
    {
        "name": "Gasp\u00e9 (Michel-Pouliot) Airport",
        "city": "Gaspe",
        "country": "Canada",
        "code": "YGP",
        "latitude": 48.7752990723,
        "longitude": -64.4785995483,
        "altitude": 112.0
    },
    {
        "name": "Geraldton Greenstone Regional Airport",
        "city": "Geraldton",
        "country": "Canada",
        "code": "YGQ",
        "latitude": 49.77830123901367,
        "longitude": -86.93939971923828,
        "altitude": 1144.0
    },
    {
        "name": "\u00celes-de-la-Madeleine Airport",
        "city": "Iles De La Madeleine",
        "country": "Canada",
        "code": "YGR",
        "latitude": 47.42470169067383,
        "longitude": -61.778099060058594,
        "altitude": 35.0
    },
    {
        "name": "Hudson Bay Airport",
        "city": "Hudson Bay",
        "country": "Canada",
        "code": "YHB",
        "latitude": 52.8166999817,
        "longitude": -102.310997009,
        "altitude": 1175.0
    },
    {
        "name": "Dryden Regional Airport",
        "city": "Dryden",
        "country": "Canada",
        "code": "YHD",
        "latitude": 49.831699,
        "longitude": -92.744202,
        "altitude": 1354.0
    },
    {
        "name": "Ulukhaktok Holman Airport",
        "city": "Holman Island",
        "country": "Canada",
        "code": "YHI",
        "latitude": 70.76280212402344,
        "longitude": -117.80599975585938,
        "altitude": 117.0
    },
    {
        "name": "Gjoa Haven Airport",
        "city": "Gjoa Haven",
        "country": "Canada",
        "code": "YHK",
        "latitude": 68.635597229,
        "longitude": -95.84970092770001,
        "altitude": 152.0
    },
    {
        "name": "John C. Munro Hamilton International Airport",
        "city": "Hamilton",
        "country": "Canada",
        "code": "YHM",
        "latitude": 43.173599243199995,
        "longitude": -79.93499755859999,
        "altitude": 780.0
    },
    {
        "name": "Montr\u00e9al / Saint-Hubert Airport",
        "city": "Montreal",
        "country": "Canada",
        "code": "YHU",
        "latitude": 45.5175018311,
        "longitude": -73.4169006348,
        "altitude": 90.0
    },
    {
        "name": "Hay River / Merlyn Carter Airport",
        "city": "Hay River",
        "country": "Canada",
        "code": "YHY",
        "latitude": 60.8396987915,
        "longitude": -115.782997131,
        "altitude": 541.0
    },
    {
        "name": "Halifax / Stanfield International Airport",
        "city": "Halifax",
        "country": "Canada",
        "code": "YHZ",
        "latitude": 44.8807983398,
        "longitude": -63.5085983276,
        "altitude": 477.0
    },
    {
        "name": "Atikokan Municipal Airport",
        "city": "Atikokan",
        "country": "Canada",
        "code": "YIB",
        "latitude": 48.7738990784,
        "longitude": -91.6386032104,
        "altitude": 1408.0
    },
    {
        "name": "Pond Inlet Airport",
        "city": "Pond Inlet",
        "country": "Canada",
        "code": "YIO",
        "latitude": 72.6832962036,
        "longitude": -77.9666976929,
        "altitude": 181.0
    },
    {
        "name": "St Jean Airport",
        "city": "St. Jean",
        "country": "Canada",
        "code": "YJN",
        "latitude": 45.29439926147461,
        "longitude": -73.28109741210938,
        "altitude": 136.0
    },
    {
        "name": "Stephenville Airport",
        "city": "Stephenville",
        "country": "Canada",
        "code": "YJT",
        "latitude": 48.5442008972168,
        "longitude": -58.54999923706055,
        "altitude": 84.0
    },
    {
        "name": "Kamloops Airport",
        "city": "Kamloops",
        "country": "Canada",
        "code": "YKA",
        "latitude": 50.7022018433,
        "longitude": -120.444000244,
        "altitude": 1133.0
    },
    {
        "name": "Waterloo Airport",
        "city": "Waterloo",
        "country": "Canada",
        "code": "YKF",
        "latitude": 43.460800170899994,
        "longitude": -80.3786010742,
        "altitude": 1055.0
    },
    {
        "name": "Schefferville Airport",
        "city": "Schefferville",
        "country": "Canada",
        "code": "YKL",
        "latitude": 54.805301666259766,
        "longitude": -66.8052978515625,
        "altitude": 1709.0
    },
    {
        "name": "Kindersley Airport",
        "city": "Kindersley",
        "country": "Canada",
        "code": "YKY",
        "latitude": 51.5175018311,
        "longitude": -109.180999756,
        "altitude": 2277.0
    },
    {
        "name": "Buttonville Municipal Airport",
        "city": "Toronto",
        "country": "Canada",
        "code": "YKZ",
        "latitude": 43.86220169067383,
        "longitude": -79.37000274658203,
        "altitude": 650.0
    },
    {
        "name": "Chapleau Airport",
        "city": "Chapleau",
        "country": "Canada",
        "code": "YLD",
        "latitude": 47.81999969482422,
        "longitude": -83.3467025756836,
        "altitude": 1470.0
    },
    {
        "name": "Meadow Lake Airport",
        "city": "Meadow Lake",
        "country": "Canada",
        "code": "YLJ",
        "latitude": 54.125301361083984,
        "longitude": -108.52300262451172,
        "altitude": 1576.0
    },
    {
        "name": "Lloydminster Airport",
        "city": "Lloydminster",
        "country": "Canada",
        "code": "YLL",
        "latitude": 53.309200286865234,
        "longitude": -110.072998046875,
        "altitude": 2193.0
    },
    {
        "name": "Alert Airport",
        "city": "Alert",
        "country": "Canada",
        "code": "YLT",
        "latitude": 82.51779937740001,
        "longitude": -62.2806015015,
        "altitude": 100.0
    },
    {
        "name": "Kelowna International Airport",
        "city": "Kelowna",
        "country": "Canada",
        "code": "YLW",
        "latitude": 49.9561004639,
        "longitude": -119.377998352,
        "altitude": 1421.0
    },
    {
        "name": "Mayo Airport",
        "city": "Mayo",
        "country": "Canada",
        "code": "YMA",
        "latitude": 63.61640167236328,
        "longitude": -135.8679962158203,
        "altitude": 1653.0
    },
    {
        "name": "Moose Jaw Air Vice Marshal C. M. McEwen Airport",
        "city": "Moose Jaw",
        "country": "Canada",
        "code": "YMJ",
        "latitude": 50.330299377441406,
        "longitude": -105.55899810791016,
        "altitude": 1892.0
    },
    {
        "name": "Fort McMurray Airport",
        "city": "Fort Mcmurray",
        "country": "Canada",
        "code": "YMM",
        "latitude": 56.653301239,
        "longitude": -111.222000122,
        "altitude": 1211.0
    },
    {
        "name": "Moosonee Airport",
        "city": "Moosonee",
        "country": "Canada",
        "code": "YMO",
        "latitude": 51.291099548339844,
        "longitude": -80.60780334472656,
        "altitude": 30.0
    },
    {
        "name": "Maniwaki Airport",
        "city": "Maniwaki",
        "country": "Canada",
        "code": "YMW",
        "latitude": 46.2728004456,
        "longitude": -75.9906005859,
        "altitude": 656.0
    },
    {
        "name": "Montreal International (Mirabel) Airport",
        "city": "Montreal",
        "country": "Canada",
        "code": "YMX",
        "latitude": 45.679501,
        "longitude": -74.038696,
        "altitude": 270.0
    },
    {
        "name": "Natashquan Airport",
        "city": "Natashquan",
        "country": "Canada",
        "code": "YNA",
        "latitude": 50.189998626708984,
        "longitude": -61.78919982910156,
        "altitude": 39.0
    },
    {
        "name": "Ottawa / Gatineau Airport",
        "city": "Gatineau",
        "country": "Canada",
        "code": "YND",
        "latitude": 45.521701812699995,
        "longitude": -75.5635986328,
        "altitude": 211.0
    },
    {
        "name": "Matagami Airport",
        "city": "Matagami",
        "country": "Canada",
        "code": "YNM",
        "latitude": 49.76169967651367,
        "longitude": -77.80280303955078,
        "altitude": 918.0
    },
    {
        "name": "Old Crow Airport",
        "city": "Old Crow",
        "country": "Canada",
        "code": "YOC",
        "latitude": 67.57060241699219,
        "longitude": -139.83900451660156,
        "altitude": 824.0
    },
    {
        "name": "CFB Cold Lake",
        "city": "Cold Lake",
        "country": "Canada",
        "code": "YOD",
        "latitude": 54.404998779296875,
        "longitude": -110.27899932861328,
        "altitude": 1775.0
    },
    {
        "name": "High Level Airport",
        "city": "High Level",
        "country": "Canada",
        "code": "YOJ",
        "latitude": 58.62139892578125,
        "longitude": -117.16500091552734,
        "altitude": 1110.0
    },
    {
        "name": "Ottawa Macdonald-Cartier International Airport",
        "city": "Ottawa",
        "country": "Canada",
        "code": "YOW",
        "latitude": 45.3224983215332,
        "longitude": -75.66919708251953,
        "altitude": 374.0
    },
    {
        "name": "Prince Albert Glass Field",
        "city": "Prince Albert",
        "country": "Canada",
        "code": "YPA",
        "latitude": 53.214199066199996,
        "longitude": -105.672996521,
        "altitude": 1405.0
    },
    {
        "name": "Peace River Airport",
        "city": "Peace River",
        "country": "Canada",
        "code": "YPE",
        "latitude": 56.226898,
        "longitude": -117.446999,
        "altitude": 1873.0
    },
    {
        "name": "Southport Airport",
        "city": "Portage-la-prairie",
        "country": "Canada",
        "code": "YPG",
        "latitude": 49.903099,
        "longitude": -98.273817,
        "altitude": 885.0
    },
    {
        "name": "Pitt Meadows Airport",
        "city": "Pitt Meadows",
        "country": "Canada",
        "code": "\\N",
        "latitude": 49.21609878540039,
        "longitude": -122.70999908447266,
        "altitude": 11.0
    },
    {
        "name": "Pickle Lake Airport",
        "city": "Pickle Lake",
        "country": "Canada",
        "code": "YPL",
        "latitude": 51.4463996887207,
        "longitude": -90.21420288085938,
        "altitude": 1267.0
    },
    {
        "name": "Port Menier Airport",
        "city": "Port Menier",
        "country": "Canada",
        "code": "YPN",
        "latitude": 49.83639907836914,
        "longitude": -64.2885971069336,
        "altitude": 167.0
    },
    {
        "name": "Peterborough Airport",
        "city": "Peterborough",
        "country": "Canada",
        "code": "YPQ",
        "latitude": 44.22999954223633,
        "longitude": -78.36329650878906,
        "altitude": 628.0
    },
    {
        "name": "Prince Rupert Airport",
        "city": "Prince Pupert",
        "country": "Canada",
        "code": "YPR",
        "latitude": 54.286098480199996,
        "longitude": -130.445007324,
        "altitude": 116.0
    },
    {
        "name": "Fort Chipewyan Airport",
        "city": "Fort Chipewyan",
        "country": "Canada",
        "code": "YPY",
        "latitude": 58.7672004699707,
        "longitude": -111.11699676513672,
        "altitude": 761.0
    },
    {
        "name": "Muskoka Airport",
        "city": "Muskoka",
        "country": "Canada",
        "code": "YQA",
        "latitude": 44.974700927734375,
        "longitude": -79.30329895019531,
        "altitude": 925.0
    },
    {
        "name": "Quebec Jean Lesage International Airport",
        "city": "Quebec",
        "country": "Canada",
        "code": "YQB",
        "latitude": 46.7911,
        "longitude": -71.393303,
        "altitude": 244.0
    },
    {
        "name": "Red Deer Regional Airport",
        "city": "Red Deer Industrial",
        "country": "Canada",
        "code": "YQF",
        "latitude": 52.18220138549805,
        "longitude": -113.89399719238281,
        "altitude": 2968.0
    },
    {
        "name": "Windsor Airport",
        "city": "Windsor",
        "country": "Canada",
        "code": "YQG",
        "latitude": 42.27560043334961,
        "longitude": -82.95559692382812,
        "altitude": 622.0
    },
    {
        "name": "Watson Lake Airport",
        "city": "Watson Lake",
        "country": "Canada",
        "code": "YQH",
        "latitude": 60.11640167236328,
        "longitude": -128.82200622558594,
        "altitude": 2255.0
    },
    {
        "name": "Kenora Airport",
        "city": "Kenora",
        "country": "Canada",
        "code": "YQK",
        "latitude": 49.788299560546875,
        "longitude": -94.36309814453125,
        "altitude": 1332.0
    },
    {
        "name": "Lethbridge County Airport",
        "city": "Lethbridge",
        "country": "Canada",
        "code": "YQL",
        "latitude": 49.6302986145,
        "longitude": -112.800003052,
        "altitude": 3048.0
    },
    {
        "name": "Greater Moncton International Airport",
        "city": "Moncton",
        "country": "Canada",
        "code": "YQM",
        "latitude": 46.11220169067383,
        "longitude": -64.67859649658203,
        "altitude": 232.0
    },
    {
        "name": "Comox Airport",
        "city": "Comox",
        "country": "Canada",
        "code": "YQQ",
        "latitude": 49.71080017089844,
        "longitude": -124.88700103759766,
        "altitude": 84.0
    },
    {
        "name": "Regina International Airport",
        "city": "Regina",
        "country": "Canada",
        "code": "YQR",
        "latitude": 50.43190002441406,
        "longitude": -104.66600036621094,
        "altitude": 1894.0
    },
    {
        "name": "Thunder Bay Airport",
        "city": "Thunder Bay",
        "country": "Canada",
        "code": "YQT",
        "latitude": 48.37189865112305,
        "longitude": -89.32389831542969,
        "altitude": 653.0
    },
    {
        "name": "Grande Prairie Airport",
        "city": "Grande Prairie",
        "country": "Canada",
        "code": "YQU",
        "latitude": 55.1796989441,
        "longitude": -118.885002136,
        "altitude": 2195.0
    },
    {
        "name": "Yorkton Municipal Airport",
        "city": "Yorkton",
        "country": "Canada",
        "code": "YQV",
        "latitude": 51.26470184326172,
        "longitude": -102.46199798583984,
        "altitude": 1635.0
    },
    {
        "name": "North Battleford Airport",
        "city": "North Battleford",
        "country": "Canada",
        "code": "YQW",
        "latitude": 52.76919937133789,
        "longitude": -108.24400329589844,
        "altitude": 1799.0
    },
    {
        "name": "Gander International Airport",
        "city": "Gander",
        "country": "Canada",
        "code": "YQX",
        "latitude": 48.9369010925293,
        "longitude": -54.56809997558594,
        "altitude": 496.0
    },
    {
        "name": "Sydney / J.A. Douglas McCurdy Airport",
        "city": "Sydney",
        "country": "Canada",
        "code": "YQY",
        "latitude": 46.1614,
        "longitude": -60.047798,
        "altitude": 203.0
    },
    {
        "name": "Quesnel Airport",
        "city": "Quesnel",
        "country": "Canada",
        "code": "YQZ",
        "latitude": 53.026100158691406,
        "longitude": -122.51000213623047,
        "altitude": 1789.0
    },
    {
        "name": "Resolute Bay Airport",
        "city": "Resolute",
        "country": "Canada",
        "code": "YRB",
        "latitude": 74.7169036865,
        "longitude": -94.9693984985,
        "altitude": 215.0
    },
    {
        "name": "Rivi\u00e8re-du-Loup Airport",
        "city": "Riviere Du Loup",
        "country": "Canada",
        "code": "YRI",
        "latitude": 47.764400482177734,
        "longitude": -69.58470153808594,
        "altitude": 427.0
    },
    {
        "name": "Roberval Airport",
        "city": "Roberval",
        "country": "Canada",
        "code": "YRJ",
        "latitude": 48.52000045776367,
        "longitude": -72.2656021118164,
        "altitude": 586.0
    },
    {
        "name": "Rocky Mountain House Airport",
        "city": "Rocky Mountain House",
        "country": "Canada",
        "code": "YRM",
        "latitude": 52.4296989441,
        "longitude": -114.903999329,
        "altitude": 3244.0
    },
    {
        "name": "Rankin Inlet Airport",
        "city": "Rankin Inlet",
        "country": "Canada",
        "code": "YRT",
        "latitude": 62.8114013672,
        "longitude": -92.1157989502,
        "altitude": 94.0
    },
    {
        "name": "Sudbury Airport",
        "city": "Sudbury",
        "country": "Canada",
        "code": "YSB",
        "latitude": 46.625,
        "longitude": -80.79889678955078,
        "altitude": 1141.0
    },
    {
        "name": "Sherbrooke Airport",
        "city": "Sherbrooke",
        "country": "Canada",
        "code": "YSC",
        "latitude": 45.4385986328125,
        "longitude": -71.69139862060547,
        "altitude": 792.0
    },
    {
        "name": "Saint John Airport",
        "city": "St. John",
        "country": "Canada",
        "code": "YSJ",
        "latitude": 45.31610107421875,
        "longitude": -65.89029693603516,
        "altitude": 357.0
    },
    {
        "name": "Fort Smith Airport",
        "city": "Fort Smith",
        "country": "Canada",
        "code": "YSM",
        "latitude": 60.020301818847656,
        "longitude": -111.96199798583984,
        "altitude": 671.0
    },
    {
        "name": "Nanisivik Airport",
        "city": "Nanisivik",
        "country": "Canada",
        "code": "YSR",
        "latitude": 72.982201,
        "longitude": -84.613602,
        "altitude": 2106.0
    },
    {
        "name": "Summerside Airport",
        "city": "Summerside",
        "country": "Canada",
        "code": "YSU",
        "latitude": 46.44060134887695,
        "longitude": -63.83359909057617,
        "altitude": 56.0
    },
    {
        "name": "Sachs Harbour (David Nasogaluak Jr. Saaryuaq) Airport",
        "city": "Sachs Harbour",
        "country": "Canada",
        "code": "YSY",
        "latitude": 71.9938964844,
        "longitude": -125.242996216,
        "altitude": 282.0
    },
    {
        "name": "Cape Dorset Airport",
        "city": "Cape Dorset",
        "country": "Canada",
        "code": "YTE",
        "latitude": 64.2300033569,
        "longitude": -76.5267028809,
        "altitude": 164.0
    },
    {
        "name": "Thompson Airport",
        "city": "Thompson",
        "country": "Canada",
        "code": "YTH",
        "latitude": 55.80110168457031,
        "longitude": -97.86419677734375,
        "altitude": 729.0
    },
    {
        "name": "CFB Trenton",
        "city": "Trenton",
        "country": "Canada",
        "code": "YTR",
        "latitude": 44.118900299072266,
        "longitude": -77.5280990600586,
        "altitude": 283.0
    },
    {
        "name": "Timmins/Victor M. Power",
        "city": "Timmins",
        "country": "Canada",
        "code": "YTS",
        "latitude": 48.569698333699996,
        "longitude": -81.376701355,
        "altitude": 967.0
    },
    {
        "name": "Billy Bishop Toronto City Centre Airport",
        "city": "Toronto",
        "country": "Canada",
        "code": "YTZ",
        "latitude": 43.627499,
        "longitude": -79.396202,
        "altitude": 252.0
    },
    {
        "name": "Tuktoyaktuk Airport",
        "city": "Tuktoyaktuk",
        "country": "Canada",
        "code": "YUB",
        "latitude": 69.43329620361328,
        "longitude": -133.0260009765625,
        "altitude": 15.0
    },
    {
        "name": "Montreal / Pierre Elliott Trudeau International Airport",
        "city": "Montreal",
        "country": "Canada",
        "code": "YUL",
        "latitude": 45.4706001282,
        "longitude": -73.7407989502,
        "altitude": 118.0
    },
    {
        "name": "Repulse Bay Airport",
        "city": "Repulse Bay",
        "country": "Canada",
        "code": "YUT",
        "latitude": 66.5214004517,
        "longitude": -86.22470092770001,
        "altitude": 80.0
    },
    {
        "name": "Hall Beach Airport",
        "city": "Hall Beach",
        "country": "Canada",
        "code": "YUX",
        "latitude": 68.77610015869999,
        "longitude": -81.2425,
        "altitude": 30.0
    },
    {
        "name": "Rouyn Noranda Airport",
        "city": "Rouyn",
        "country": "Canada",
        "code": "YUY",
        "latitude": 48.20610046386719,
        "longitude": -78.83560180664062,
        "altitude": 988.0
    },
    {
        "name": "La Ronge Airport",
        "city": "La Ronge",
        "country": "Canada",
        "code": "YVC",
        "latitude": 55.151401519800004,
        "longitude": -105.262001038,
        "altitude": 1242.0
    },
    {
        "name": "Vermilion Airport",
        "city": "Vermillion",
        "country": "Canada",
        "code": "YVG",
        "latitude": 53.355800628699996,
        "longitude": -110.823997498,
        "altitude": 2025.0
    },
    {
        "name": "Qikiqtarjuaq Airport",
        "city": "Broughton Island",
        "country": "Canada",
        "code": "YVM",
        "latitude": 67.5457992554,
        "longitude": -64.03140258789999,
        "altitude": 21.0
    },
    {
        "name": "Val-d'Or Airport",
        "city": "Val D'or",
        "country": "Canada",
        "code": "YVO",
        "latitude": 48.0532989502,
        "longitude": -77.7827987671,
        "altitude": 1107.0
    },
    {
        "name": "Kuujjuaq Airport",
        "city": "Quujjuaq",
        "country": "Canada",
        "code": "YVP",
        "latitude": 58.096099853515625,
        "longitude": -68.4269027709961,
        "altitude": 129.0
    },
    {
        "name": "Norman Wells Airport",
        "city": "Norman Wells",
        "country": "Canada",
        "code": "YVQ",
        "latitude": 65.28160095214844,
        "longitude": -126.7979965209961,
        "altitude": 238.0
    },
    {
        "name": "Vancouver International Airport",
        "city": "Vancouver",
        "country": "Canada",
        "code": "YVR",
        "latitude": 49.193901062,
        "longitude": -123.183998108,
        "altitude": 14.0
    },
    {
        "name": "Buffalo Narrows Airport",
        "city": "Buffalo Narrows",
        "country": "Canada",
        "code": "YVT",
        "latitude": 55.8418998718,
        "longitude": -108.417999268,
        "altitude": 1423.0
    },
    {
        "name": "Wiarton Airport",
        "city": "Wiarton",
        "country": "Canada",
        "code": "YVV",
        "latitude": 44.7458,
        "longitude": -81.107201,
        "altitude": 729.0
    },
    {
        "name": "Petawawa Airport",
        "city": "Petawawa",
        "country": "Canada",
        "code": "YWA",
        "latitude": 45.95220184326172,
        "longitude": -77.31919860839844,
        "altitude": 427.0
    },
    {
        "name": "Winnipeg / James Armstrong Richardson International Airport",
        "city": "Winnipeg",
        "country": "Canada",
        "code": "YWG",
        "latitude": 49.909999847399995,
        "longitude": -97.2398986816,
        "altitude": 783.0
    },
    {
        "name": "Wabush Airport",
        "city": "Wabush",
        "country": "Canada",
        "code": "YWK",
        "latitude": 52.92190170288086,
        "longitude": -66.8644027709961,
        "altitude": 1808.0
    },
    {
        "name": "Williams Lake Airport",
        "city": "Williams Lake",
        "country": "Canada",
        "code": "YWL",
        "latitude": 52.1831016541,
        "longitude": -122.054000854,
        "altitude": 3085.0
    },
    {
        "name": "Wrigley Airport",
        "city": "Wrigley",
        "country": "Canada",
        "code": "YWY",
        "latitude": 63.20940017700195,
        "longitude": -123.43699645996094,
        "altitude": 489.0
    },
    {
        "name": "Cranbrook/Canadian Rockies International Airport",
        "city": "Cranbrook",
        "country": "Canada",
        "code": "YXC",
        "latitude": 49.610801696777,
        "longitude": -115.78199768066,
        "altitude": 3082.0
    },
    {
        "name": "Edmonton City Centre (Blatchford Field) Airport",
        "city": "Edmonton",
        "country": "Canada",
        "code": "YXD",
        "latitude": 53.5724983215,
        "longitude": -113.521003723,
        "altitude": 2202.0
    },
    {
        "name": "Saskatoon John G. Diefenbaker International Airport",
        "city": "Saskatoon",
        "country": "Canada",
        "code": "YXE",
        "latitude": 52.170799255371094,
        "longitude": -106.69999694824219,
        "altitude": 1653.0
    },
    {
        "name": "Medicine Hat Airport",
        "city": "Medicine Hat",
        "country": "Canada",
        "code": "YXH",
        "latitude": 50.01890182495117,
        "longitude": -110.72100067138672,
        "altitude": 2352.0
    },
    {
        "name": "Fort St John Airport",
        "city": "Fort Saint John",
        "country": "Canada",
        "code": "YXJ",
        "latitude": 56.23809814453125,
        "longitude": -120.73999786376953,
        "altitude": 2280.0
    },
    {
        "name": "Sioux Lookout Airport",
        "city": "Sioux Lookout",
        "country": "Canada",
        "code": "YXL",
        "latitude": 50.11389923095703,
        "longitude": -91.9052963256836,
        "altitude": 1258.0
    },
    {
        "name": "Pangnirtung Airport",
        "city": "Pangnirtung",
        "country": "Canada",
        "code": "YXP",
        "latitude": 66.1449966431,
        "longitude": -65.71360015869999,
        "altitude": 75.0
    },
    {
        "name": "Earlton (Timiskaming Regional) Airport",
        "city": "Earlton",
        "country": "Canada",
        "code": "YXR",
        "latitude": 47.697400654599996,
        "longitude": -79.8473453522,
        "altitude": 800.0
    },
    {
        "name": "Prince George Airport",
        "city": "Prince George",
        "country": "Canada",
        "code": "YXS",
        "latitude": 53.8894004822,
        "longitude": -122.679000854,
        "altitude": 2267.0
    },
    {
        "name": "Northwest Regional Airport Terrace-Kitimat",
        "city": "Terrace",
        "country": "Canada",
        "code": "YXT",
        "latitude": 54.468498,
        "longitude": -128.576009,
        "altitude": 713.0
    },
    {
        "name": "London Airport",
        "city": "London",
        "country": "Canada",
        "code": "YXU",
        "latitude": 43.035599,
        "longitude": -81.1539,
        "altitude": 912.0
    },
    {
        "name": "Abbotsford Airport",
        "city": "Abbotsford",
        "country": "Canada",
        "code": "YXX",
        "latitude": 49.025299072265625,
        "longitude": -122.36100006103516,
        "altitude": 195.0
    },
    {
        "name": "Whitehorse / Erik Nielsen International Airport",
        "city": "Whitehorse",
        "country": "Canada",
        "code": "YXY",
        "latitude": 60.7095985413,
        "longitude": -135.067001343,
        "altitude": 2317.0
    },
    {
        "name": "North Bay Jack Garland Airport",
        "city": "North Bay",
        "country": "Canada",
        "code": "YYB",
        "latitude": 46.363602,
        "longitude": -79.422798,
        "altitude": 1215.0
    },
    {
        "name": "Calgary International Airport",
        "city": "Calgary",
        "country": "Canada",
        "code": "YYC",
        "latitude": 51.113899231,
        "longitude": -114.019996643,
        "altitude": 3557.0
    },
    {
        "name": "Smithers Airport",
        "city": "Smithers",
        "country": "Canada",
        "code": "YYD",
        "latitude": 54.82469940185547,
        "longitude": -127.18299865722656,
        "altitude": 1712.0
    },
    {
        "name": "Fort Nelson Airport",
        "city": "Fort Nelson",
        "country": "Canada",
        "code": "YYE",
        "latitude": 58.8363990784,
        "longitude": -122.597000122,
        "altitude": 1253.0
    },
    {
        "name": "Penticton Airport",
        "city": "Penticton",
        "country": "Canada",
        "code": "YYF",
        "latitude": 49.46310043334961,
        "longitude": -119.60199737548828,
        "altitude": 1129.0
    },
    {
        "name": "Charlottetown Airport",
        "city": "Charlottetown",
        "country": "Canada",
        "code": "YYG",
        "latitude": 46.290000915527344,
        "longitude": -63.12110137939453,
        "altitude": 160.0
    },
    {
        "name": "Taloyoak Airport",
        "city": "Spence Bay",
        "country": "Canada",
        "code": "YYH",
        "latitude": 69.5466995239,
        "longitude": -93.5766983032,
        "altitude": 92.0
    },
    {
        "name": "Victoria International Airport",
        "city": "Victoria",
        "country": "Canada",
        "code": "YYJ",
        "latitude": 48.646900177,
        "longitude": -123.426002502,
        "altitude": 63.0
    },
    {
        "name": "Lynn Lake Airport",
        "city": "Lynn Lake",
        "country": "Canada",
        "code": "YYL",
        "latitude": 56.86389923095703,
        "longitude": -101.07599639892578,
        "altitude": 1170.0
    },
    {
        "name": "Swift Current Airport",
        "city": "Swift Current",
        "country": "Canada",
        "code": "YYN",
        "latitude": 50.291900634799994,
        "longitude": -107.691001892,
        "altitude": 2680.0
    },
    {
        "name": "Churchill Airport",
        "city": "Churchill",
        "country": "Canada",
        "code": "YYQ",
        "latitude": 58.739200592041016,
        "longitude": -94.06500244140625,
        "altitude": 94.0
    },
    {
        "name": "Goose Bay Airport",
        "city": "Goose Bay",
        "country": "Canada",
        "code": "YYR",
        "latitude": 53.3191986084,
        "longitude": -60.4258003235,
        "altitude": 160.0
    },
    {
        "name": "St. John's International Airport",
        "city": "St. John's",
        "country": "Canada",
        "code": "YYT",
        "latitude": 47.618598938,
        "longitude": -52.7518997192,
        "altitude": 461.0
    },
    {
        "name": "Kapuskasing Airport",
        "city": "Kapuskasing",
        "country": "Canada",
        "code": "YYU",
        "latitude": 49.41389846801758,
        "longitude": -82.46749877929688,
        "altitude": 743.0
    },
    {
        "name": "Armstrong Airport",
        "city": "Armstrong",
        "country": "Canada",
        "code": "YYW",
        "latitude": 50.29029846191406,
        "longitude": -88.90969848632812,
        "altitude": 1058.0
    },
    {
        "name": "Mont Joli Airport",
        "city": "Mont Joli",
        "country": "Canada",
        "code": "YYY",
        "latitude": 48.60860061645508,
        "longitude": -68.20809936523438,
        "altitude": 172.0
    },
    {
        "name": "Lester B. Pearson International Airport",
        "city": "Toronto",
        "country": "Canada",
        "code": "YYZ",
        "latitude": 43.6772003174,
        "longitude": -79.63059997559999,
        "altitude": 569.0
    },
    {
        "name": "Downsview Airport",
        "city": "Toronto",
        "country": "Canada",
        "code": "YZD",
        "latitude": 43.74250030517578,
        "longitude": -79.4655990600586,
        "altitude": 652.0
    },
    {
        "name": "Gore Bay Manitoulin Airport",
        "city": "Gore Bay",
        "country": "Canada",
        "code": "YZE",
        "latitude": 45.88529968261719,
        "longitude": -82.56780242919922,
        "altitude": 635.0
    },
    {
        "name": "Yellowknife Airport",
        "city": "Yellowknife",
        "country": "Canada",
        "code": "YZF",
        "latitude": 62.462799072265625,
        "longitude": -114.44000244140625,
        "altitude": 675.0
    },
    {
        "name": "Slave Lake Airport",
        "city": "Slave Lake",
        "country": "Canada",
        "code": "YZH",
        "latitude": 55.2930984497,
        "longitude": -114.777000427,
        "altitude": 1912.0
    },
    {
        "name": "Sandspit Airport",
        "city": "Sandspit",
        "country": "Canada",
        "code": "YZP",
        "latitude": 53.25429916379999,
        "longitude": -131.813995361,
        "altitude": 21.0
    },
    {
        "name": "Chris Hadfield Airport",
        "city": "Sarnia",
        "country": "Canada",
        "code": "YZR",
        "latitude": 42.9994010925293,
        "longitude": -82.30889892578125,
        "altitude": 594.0
    },
    {
        "name": "Port Hardy Airport",
        "city": "Port Hardy",
        "country": "Canada",
        "code": "YZT",
        "latitude": 50.680599212646484,
        "longitude": -127.36699676513672,
        "altitude": 71.0
    },
    {
        "name": "Whitecourt Airport",
        "city": "Whitecourt",
        "country": "Canada",
        "code": "YZU",
        "latitude": 54.14390182495117,
        "longitude": -115.78700256347656,
        "altitude": 2567.0
    },
    {
        "name": "Sept-\u00celes Airport",
        "city": "Sept-iles",
        "country": "Canada",
        "code": "YZV",
        "latitude": 50.22330093383789,
        "longitude": -66.2656021118164,
        "altitude": 180.0
    },
    {
        "name": "Teslin Airport",
        "city": "Teslin",
        "country": "Canada",
        "code": "YZW",
        "latitude": 60.17279815673828,
        "longitude": -132.7429962158203,
        "altitude": 2313.0
    },
    {
        "name": "CFB Greenwood",
        "city": "Greenwood",
        "country": "Canada",
        "code": "YZX",
        "latitude": 44.98440170288086,
        "longitude": -64.91690063476562,
        "altitude": 92.0
    },
    {
        "name": "Faro Airport",
        "city": "Faro",
        "country": "Canada",
        "code": "ZFA",
        "latitude": 62.20750045776367,
        "longitude": -133.37600708007812,
        "altitude": 2351.0
    },
    {
        "name": "Fort Mcpherson Airport",
        "city": "Fort Mcpherson",
        "country": "Canada",
        "code": "ZFM",
        "latitude": 67.40750122070312,
        "longitude": -134.86099243164062,
        "altitude": 116.0
    },
    {
        "name": "Blida Airport",
        "city": "Blida",
        "country": "Algeria",
        "code": "QLD",
        "latitude": 36.50360107421875,
        "longitude": 2.8141698837280273,
        "altitude": 535.0
    },
    {
        "name": "Bou Saada Airport",
        "city": "Bou Saada",
        "country": "Algeria",
        "code": "BUJ",
        "latitude": 35.33250045776367,
        "longitude": 4.206389904022217,
        "altitude": 1506.0
    },
    {
        "name": "Soummam Airport",
        "city": "Bejaja",
        "country": "Algeria",
        "code": "BJA",
        "latitude": 36.7120018005,
        "longitude": 5.0699200630200005,
        "altitude": 20.0
    },
    {
        "name": "Houari Boumediene Airport",
        "city": "Algier",
        "country": "Algeria",
        "code": "ALG",
        "latitude": 36.691001892089844,
        "longitude": 3.215409994125366,
        "altitude": 82.0
    },
    {
        "name": "Djanet Inedbirene Airport",
        "city": "Djanet",
        "country": "Algeria",
        "code": "DJG",
        "latitude": 24.292801,
        "longitude": 9.45244,
        "altitude": 3176.0
    },
    {
        "name": "Boufarik Airport",
        "city": "Boufarik",
        "country": "Algeria",
        "code": "\\N",
        "latitude": 36.545799,
        "longitude": 2.87611,
        "altitude": 335.0
    },
    {
        "name": "Reggane Airport",
        "city": "Reggan",
        "country": "Algeria",
        "code": "\\N",
        "latitude": 26.7101,
        "longitude": 0.285647,
        "altitude": 955.0
    },
    {
        "name": "Illizi Takhamalt Airport",
        "city": "Illizi",
        "country": "Algeria",
        "code": "VVZ",
        "latitude": 26.7234992981,
        "longitude": 8.62265014648,
        "altitude": 1778.0
    },
    {
        "name": "Ain Oussera Airport",
        "city": "Ain Oussera",
        "country": "Algeria",
        "code": "\\N",
        "latitude": 35.52539825439453,
        "longitude": 2.8787100315093994,
        "altitude": 2132.0
    },
    {
        "name": "Aguenar \u2013 Hadj Bey Akhamok Airport",
        "city": "Tamanrasset",
        "country": "Algeria",
        "code": "TMR",
        "latitude": 22.8115005493,
        "longitude": 5.45107984543,
        "altitude": 4518.0
    },
    {
        "name": "Jijel Ferhat Abbas Airport",
        "city": "Jijel",
        "country": "Algeria",
        "code": "GJL",
        "latitude": 36.7951011658,
        "longitude": 5.87361001968,
        "altitude": 36.0
    },
    {
        "name": "Mecheria Airport",
        "city": "Mecheria",
        "country": "Algeria",
        "code": "MZW",
        "latitude": 33.535900116,
        "longitude": -0.242353007197,
        "altitude": 3855.0
    },
    {
        "name": "Relizane Airport",
        "city": "Relizane",
        "country": "Algeria",
        "code": "\\N",
        "latitude": 35.752201,
        "longitude": 0.626272,
        "altitude": 282.0
    },
    {
        "name": "Rabah Bitat Airport",
        "city": "Annaba",
        "country": "Algeria",
        "code": "AAE",
        "latitude": 36.822201,
        "longitude": 7.809174,
        "altitude": 16.0
    },
    {
        "name": "Mohamed Boudiaf International Airport",
        "city": "Constantine",
        "country": "Algeria",
        "code": "CZL",
        "latitude": 36.2760009765625,
        "longitude": 6.620389938354492,
        "altitude": 2265.0
    },
    {
        "name": "Cheikh Larbi T\u00e9bessi Airport",
        "city": "Tebessa",
        "country": "Algeria",
        "code": "TEE",
        "latitude": 35.4315986633,
        "longitude": 8.12071990967,
        "altitude": 2661.0
    },
    {
        "name": "Hassi R'Mel Airport",
        "city": "Tilrempt",
        "country": "Algeria",
        "code": "HRM",
        "latitude": 32.93040084838867,
        "longitude": 3.311539888381958,
        "altitude": 2540.0
    },
    {
        "name": "Bou Chekif Airport",
        "city": "Tiaret",
        "country": "Algeria",
        "code": "TID",
        "latitude": 35.3410987854,
        "longitude": 1.46315002441,
        "altitude": 3245.0
    },
    {
        "name": "Bou Sfer Airport",
        "city": "Bou Sfer",
        "country": "Algeria",
        "code": "\\N",
        "latitude": 35.73540115356445,
        "longitude": -0.8053889870643616,
        "altitude": 187.0
    },
    {
        "name": "Tindouf Airport",
        "city": "Tindouf",
        "country": "Algeria",
        "code": "TIN",
        "latitude": 27.7003993988,
        "longitude": -8.167099952700001,
        "altitude": 1453.0
    },
    {
        "name": "Ech Cheliff Airport",
        "city": "Ech-cheliff",
        "country": "Algeria",
        "code": "CFK",
        "latitude": 36.2126998901,
        "longitude": 1.33176994324,
        "altitude": 463.0
    },
    {
        "name": "Tafaraoui Airport",
        "city": "Oran",
        "country": "Algeria",
        "code": "TAF",
        "latitude": 35.54240036010742,
        "longitude": -0.5322780013084412,
        "altitude": 367.0
    },
    {
        "name": "Zenata \u2013 Messali El Hadj Airport",
        "city": "Tlemcen",
        "country": "Algeria",
        "code": "TLM",
        "latitude": 35.0167007446,
        "longitude": -1.45000004768,
        "altitude": 814.0
    },
    {
        "name": "Es Senia Airport",
        "city": "Oran",
        "country": "Algeria",
        "code": "ORN",
        "latitude": 35.6239013672,
        "longitude": -0.6211829781529999,
        "altitude": 295.0
    },
    {
        "name": "Sidi Bel Abbes Airport",
        "city": "Sidi Bel Abbes",
        "country": "Algeria",
        "code": "BFW",
        "latitude": 35.1717987061,
        "longitude": -0.593275010586,
        "altitude": 1614.0
    },
    {
        "name": "Ghriss Airport",
        "city": "Ghriss",
        "country": "Algeria",
        "code": "MUW",
        "latitude": 35.207698822021484,
        "longitude": 0.14714199304580688,
        "altitude": 1686.0
    },
    {
        "name": "Touat Cheikh Sidi Mohamed Belkebir Airport",
        "city": "Adrar",
        "country": "Algeria",
        "code": "AZR",
        "latitude": 27.837600708007812,
        "longitude": -0.18641400337219238,
        "altitude": 919.0
    },
    {
        "name": "Biskra Airport",
        "city": "Biskra",
        "country": "Algeria",
        "code": "BSK",
        "latitude": 34.793300628699996,
        "longitude": 5.73823022842,
        "altitude": 289.0
    },
    {
        "name": "El Golea Airport",
        "city": "El Golea",
        "country": "Algeria",
        "code": "ELG",
        "latitude": 30.571300506591797,
        "longitude": 2.8595900535583496,
        "altitude": 1306.0
    },
    {
        "name": "Noum\u00e9rat - Moufdi Zakaria Airport",
        "city": "Ghardaia",
        "country": "Algeria",
        "code": "GHA",
        "latitude": 32.38410186767578,
        "longitude": 3.794110059738159,
        "altitude": 1512.0
    },
    {
        "name": "Oued Irara Airport",
        "city": "Hassi Messaoud",
        "country": "Algeria",
        "code": "HME",
        "latitude": 31.673000335699996,
        "longitude": 6.140439987180001,
        "altitude": 463.0
    },
    {
        "name": "In Salah Airport",
        "city": "In Salah",
        "country": "Algeria",
        "code": "INZ",
        "latitude": 27.250999450699997,
        "longitude": 2.51202011108,
        "altitude": 896.0
    },
    {
        "name": "Touggourt Sidi Madhi Airport",
        "city": "Touggourt",
        "country": "Algeria",
        "code": "TGR",
        "latitude": 33.06779861450195,
        "longitude": 6.088669776916504,
        "altitude": 279.0
    },
    {
        "name": "Laghouat Airport",
        "city": "Laghouat",
        "country": "Algeria",
        "code": "LOO",
        "latitude": 33.764400482199996,
        "longitude": 2.92833995819,
        "altitude": 2510.0
    },
    {
        "name": "Timimoun Airport",
        "city": "Timimoun",
        "country": "Algeria",
        "code": "TMX",
        "latitude": 29.2371006012,
        "longitude": 0.276033014059,
        "altitude": 1027.0
    },
    {
        "name": "Ain el Beida Airport",
        "city": "Ouargla",
        "country": "Algeria",
        "code": "OGX",
        "latitude": 31.917200088500977,
        "longitude": 5.412779808044434,
        "altitude": 492.0
    },
    {
        "name": "In Am\u00e9nas Airport",
        "city": "Zarzaitine",
        "country": "Algeria",
        "code": "IAM",
        "latitude": 28.0515,
        "longitude": 9.64291,
        "altitude": 1847.0
    },
    {
        "name": "Cadjehoun Airport",
        "city": "Cotonou",
        "country": "Benin",
        "code": "COO",
        "latitude": 6.357230186462402,
        "longitude": 2.384350061416626,
        "altitude": 19.0
    },
    {
        "name": "Ouagadougou Airport",
        "city": "Ouagadougou",
        "country": "Burkina Faso",
        "code": "OUA",
        "latitude": 12.3532,
        "longitude": -1.51242,
        "altitude": 1037.0
    },
    {
        "name": "Bobo Dioulasso Airport",
        "city": "Bobo-dioulasso",
        "country": "Burkina Faso",
        "code": "BOY",
        "latitude": 11.160099983215332,
        "longitude": -4.33096981048584,
        "altitude": 1511.0
    },
    {
        "name": "Kotoka International Airport",
        "city": "Accra",
        "country": "Ghana",
        "code": "ACC",
        "latitude": 5.605189800262451,
        "longitude": -0.16678600013256073,
        "altitude": 205.0
    },
    {
        "name": "Tamale Airport",
        "city": "Tamale",
        "country": "Ghana",
        "code": "TML",
        "latitude": 9.55718994140625,
        "longitude": -0.8632140159606934,
        "altitude": 553.0
    },
    {
        "name": "Wa Airport",
        "city": "Wa",
        "country": "Ghana",
        "code": "\\N",
        "latitude": 10.0826997756958,
        "longitude": -2.507689952850342,
        "altitude": 1060.0
    },
    {
        "name": "Sunyani Airport",
        "city": "Sunyani",
        "country": "Ghana",
        "code": "NYI",
        "latitude": 7.361830234527588,
        "longitude": -2.3287599086761475,
        "altitude": 1014.0
    },
    {
        "name": "Takoradi Airport",
        "city": "Takoradi",
        "country": "Ghana",
        "code": "TKD",
        "latitude": 4.896059989929199,
        "longitude": -1.7747600078582764,
        "altitude": 21.0
    },
    {
        "name": "Port Bouet Airport",
        "city": "Abidjan",
        "country": "Cote d'Ivoire",
        "code": "ABJ",
        "latitude": 5.261390209197998,
        "longitude": -3.9262900352478027,
        "altitude": 21.0
    },
    {
        "name": "Bouak\u00e9 Airport",
        "city": "Bouake",
        "country": "Cote d'Ivoire",
        "code": "BYK",
        "latitude": 7.738800048828125,
        "longitude": -5.073669910430908,
        "altitude": 1230.0
    },
    {
        "name": "Daloa Airport",
        "city": "Daloa",
        "country": "Cote d'Ivoire",
        "code": "DJO",
        "latitude": 6.792809963226318,
        "longitude": -6.473189830780029,
        "altitude": 823.0
    },
    {
        "name": "Korhogo Airport",
        "city": "Korhogo",
        "country": "Cote d'Ivoire",
        "code": "HGO",
        "latitude": 9.38718032837,
        "longitude": -5.55666017532,
        "altitude": 1214.0
    },
    {
        "name": "Man Airport",
        "city": "Man",
        "country": "Cote d'Ivoire",
        "code": "MJC",
        "latitude": 7.272069931030273,
        "longitude": -7.58735990524292,
        "altitude": 1089.0
    },
    {
        "name": "San Pedro Airport",
        "city": "San Pedro",
        "country": "Cote d'Ivoire",
        "code": "SPY",
        "latitude": 4.746719837188721,
        "longitude": -6.660820007324219,
        "altitude": 26.0
    },
    {
        "name": "Yamoussoukro Airport",
        "city": "Yamoussoukro",
        "country": "Cote d'Ivoire",
        "code": "ASK",
        "latitude": 6.9031701088,
        "longitude": -5.36558008194,
        "altitude": 699.0
    },
    {
        "name": "Nnamdi Azikiwe International Airport",
        "city": "Abuja",
        "country": "Nigeria",
        "code": "ABV",
        "latitude": 9.006790161132812,
        "longitude": 7.263169765472412,
        "altitude": 1123.0
    },
    {
        "name": "Akure Airport",
        "city": "Akure",
        "country": "Nigeria",
        "code": "AKR",
        "latitude": 7.246739864349365,
        "longitude": 5.3010101318359375,
        "altitude": 1100.0
    },
    {
        "name": "Benin Airport",
        "city": "Benin",
        "country": "Nigeria",
        "code": "BNI",
        "latitude": 6.316979885101318,
        "longitude": 5.5995001792907715,
        "altitude": 258.0
    },
    {
        "name": "Margaret Ekpo International Airport",
        "city": "Calabar",
        "country": "Nigeria",
        "code": "CBQ",
        "latitude": 4.976019859313965,
        "longitude": 8.347200393676758,
        "altitude": 210.0
    },
    {
        "name": "Akanu Ibiam International Airport",
        "city": "Enugu",
        "country": "Nigeria",
        "code": "ENU",
        "latitude": 6.474269866943359,
        "longitude": 7.561960220336914,
        "altitude": 466.0
    },
    {
        "name": "Gusau Airport",
        "city": "Gusau",
        "country": "Nigeria",
        "code": "\\N",
        "latitude": 12.1717,
        "longitude": 6.69611,
        "altitude": 1520.0
    },
    {
        "name": "Ibadan Airport",
        "city": "Ibadan",
        "country": "Nigeria",
        "code": "IBA",
        "latitude": 7.362460136413574,
        "longitude": 3.97832989692688,
        "altitude": 725.0
    },
    {
        "name": "Ilorin International Airport",
        "city": "Ilorin",
        "country": "Nigeria",
        "code": "ILR",
        "latitude": 8.440210342407227,
        "longitude": 4.493919849395752,
        "altitude": 1126.0
    },
    {
        "name": "Yakubu Gowon Airport",
        "city": "Jos",
        "country": "Nigeria",
        "code": "JOS",
        "latitude": 9.639829635620117,
        "longitude": 8.869050025939941,
        "altitude": 4232.0
    },
    {
        "name": "Kaduna Airport",
        "city": "Kaduna",
        "country": "Nigeria",
        "code": "KAD",
        "latitude": 10.696000099182129,
        "longitude": 7.320109844207764,
        "altitude": 2073.0
    },
    {
        "name": "Mallam Aminu International Airport",
        "city": "Kano",
        "country": "Nigeria",
        "code": "KAN",
        "latitude": 12.0476,
        "longitude": 8.52462,
        "altitude": 1562.0
    },
    {
        "name": "Maiduguri International Airport",
        "city": "Maiduguri",
        "country": "Nigeria",
        "code": "MIU",
        "latitude": 11.855299949645996,
        "longitude": 13.080900192260742,
        "altitude": 1099.0
    },
    {
        "name": "Makurdi Airport",
        "city": "Makurdi",
        "country": "Nigeria",
        "code": "MDI",
        "latitude": 7.70388,
        "longitude": 8.61394,
        "altitude": 371.0
    },
    {
        "name": "Murtala Muhammed International Airport",
        "city": "Lagos",
        "country": "Nigeria",
        "code": "LOS",
        "latitude": 6.5773701667785645,
        "longitude": 3.321160078048706,
        "altitude": 135.0
    },
    {
        "name": "Minna Airport",
        "city": "Minna",
        "country": "Nigeria",
        "code": "MXJ",
        "latitude": 9.652170181274414,
        "longitude": 6.462259769439697,
        "altitude": 834.0
    },
    {
        "name": "Port Harcourt International Airport",
        "city": "Port Hartcourt",
        "country": "Nigeria",
        "code": "PHC",
        "latitude": 5.0154900550842285,
        "longitude": 6.94959020614624,
        "altitude": 87.0
    },
    {
        "name": "Sadiq Abubakar III International Airport",
        "city": "Sokoto",
        "country": "Nigeria",
        "code": "SKO",
        "latitude": 12.916299819946289,
        "longitude": 5.207190036773682,
        "altitude": 1010.0
    },
    {
        "name": "Yola Airport",
        "city": "Yola",
        "country": "Nigeria",
        "code": "YOL",
        "latitude": 9.257550239562988,
        "longitude": 12.430399894714355,
        "altitude": 599.0
    },
    {
        "name": "Zaria Airport",
        "city": "Zaria",
        "country": "Nigeria",
        "code": "ZAR",
        "latitude": 11.1302,
        "longitude": 7.68581,
        "altitude": 2170.0
    },
    {
        "name": "Maradi Airport",
        "city": "Maradi",
        "country": "Niger",
        "code": "MFQ",
        "latitude": 13.5024995803833,
        "longitude": 7.1267499923706055,
        "altitude": 1240.0
    },
    {
        "name": "Diori Hamani International Airport",
        "city": "Niamey",
        "country": "Niger",
        "code": "NIM",
        "latitude": 13.4815,
        "longitude": 2.18361,
        "altitude": 732.0
    },
    {
        "name": "Tahoua Airport",
        "city": "Tahoua",
        "country": "Niger",
        "code": "THZ",
        "latitude": 14.875699996948242,
        "longitude": 5.265359878540039,
        "altitude": 1266.0
    },
    {
        "name": "Mano Dayak International Airport",
        "city": "Agadez",
        "country": "Niger",
        "code": "AJY",
        "latitude": 16.965999603271484,
        "longitude": 8.000109672546387,
        "altitude": 1657.0
    },
    {
        "name": "Dirkou Airport",
        "city": "Dirkou",
        "country": "Niger",
        "code": "\\N",
        "latitude": 18.968700408935547,
        "longitude": 12.86870002746582,
        "altitude": 1273.0
    },
    {
        "name": "Diffa Airport",
        "city": "Diffa",
        "country": "Niger",
        "code": "\\N",
        "latitude": 13.372900009155273,
        "longitude": 12.626700401306152,
        "altitude": 994.0
    },
    {
        "name": "Zinder Airport",
        "city": "Zinder",
        "country": "Niger",
        "code": "ZND",
        "latitude": 13.779000282287598,
        "longitude": 8.983759880065918,
        "altitude": 1516.0
    },
    {
        "name": "Monastir Habib Bourguiba International Airport",
        "city": "Monastir",
        "country": "Tunisia",
        "code": "MIR",
        "latitude": 35.75809860229492,
        "longitude": 10.75469970703125,
        "altitude": 9.0
    },
    {
        "name": "Tunis Carthage International Airport",
        "city": "Tunis",
        "country": "Tunisia",
        "code": "TUN",
        "latitude": 36.85100173950195,
        "longitude": 10.22719955444336,
        "altitude": 22.0
    },
    {
        "name": "Sidi Ahmed Air Base",
        "city": "Bizerte",
        "country": "Tunisia",
        "code": "\\N",
        "latitude": 37.245398,
        "longitude": 9.79145,
        "altitude": 20.0
    },
    {
        "name": "Remada Air Base",
        "city": "Remada",
        "country": "Tunisia",
        "code": "\\N",
        "latitude": 32.30619812011719,
        "longitude": 10.382100105285645,
        "altitude": 1004.0
    },
    {
        "name": "Gafsa Ksar International Airport",
        "city": "Gafsa",
        "country": "Tunisia",
        "code": "GAF",
        "latitude": 34.422000885009766,
        "longitude": 8.822500228881836,
        "altitude": 1060.0
    },
    {
        "name": "Gab\u00e8s Matmata International Airport",
        "city": "Gabes",
        "country": "Tunisia",
        "code": "GAE",
        "latitude": 33.87689971923828,
        "longitude": 10.103300094604492,
        "altitude": 26.0
    },
    {
        "name": "Borj El Amri Airport",
        "city": "Bordj El Amri",
        "country": "Tunisia",
        "code": "\\N",
        "latitude": 36.72129821777344,
        "longitude": 9.94314956665039,
        "altitude": 110.0
    },
    {
        "name": "Djerba Zarzis International Airport",
        "city": "Djerba",
        "country": "Tunisia",
        "code": "DJE",
        "latitude": 33.875,
        "longitude": 10.775500297546387,
        "altitude": 19.0
    },
    {
        "name": "El Borma Airport",
        "city": "El Borma",
        "country": "Tunisia",
        "code": "EBM",
        "latitude": 31.704299926757812,
        "longitude": 9.254619598388672,
        "altitude": 827.0
    },
    {
        "name": "Sfax Thyna International Airport",
        "city": "Sfax",
        "country": "Tunisia",
        "code": "SFA",
        "latitude": 34.71799850463867,
        "longitude": 10.690999984741211,
        "altitude": 85.0
    },
    {
        "name": "Tozeur Nefta International Airport",
        "city": "Tozeur",
        "country": "Tunisia",
        "code": "TOE",
        "latitude": 33.939701080322266,
        "longitude": 8.110560417175293,
        "altitude": 287.0
    },
    {
        "name": "Niamtougou International Airport",
        "city": "Niatougou",
        "country": "Togo",
        "code": "LRL",
        "latitude": 9.767330169677734,
        "longitude": 1.091249942779541,
        "altitude": 1515.0
    },
    {
        "name": "Lom\u00e9-Tokoin Airport",
        "city": "Lome",
        "country": "Togo",
        "code": "LFW",
        "latitude": 6.165609836578369,
        "longitude": 1.2545100450515747,
        "altitude": 72.0
    },
    {
        "name": "Antwerp International Airport (Deurne)",
        "city": "Antwerp",
        "country": "Belgium",
        "code": "ANR",
        "latitude": 51.1893997192,
        "longitude": 4.46027994156,
        "altitude": 39.0
    },
    {
        "name": "Beauvechain Air Base",
        "city": "Beauvechain",
        "country": "Belgium",
        "code": "\\N",
        "latitude": 50.75859832763672,
        "longitude": 4.768330097198486,
        "altitude": 370.0
    },
    {
        "name": "Kleine Brogel Air Base",
        "city": "Kleine Brogel",
        "country": "Belgium",
        "code": "\\N",
        "latitude": 51.168301,
        "longitude": 5.47,
        "altitude": 200.0
    },
    {
        "name": "Brussels Airport",
        "city": "Brussels",
        "country": "Belgium",
        "code": "BRU",
        "latitude": 50.901401519800004,
        "longitude": 4.48443984985,
        "altitude": 184.0
    },
    {
        "name": "Jehonville Air Base",
        "city": "Bertrix",
        "country": "Belgium",
        "code": "\\N",
        "latitude": 49.891700744628906,
        "longitude": 5.2238898277282715,
        "altitude": 1514.0
    },
    {
        "name": "Brussels South Charleroi Airport",
        "city": "Charleroi",
        "country": "Belgium",
        "code": "CRL",
        "latitude": 50.459202,
        "longitude": 4.45382,
        "altitude": 614.0
    },
    {
        "name": "Chi\u00e8vres Air Base",
        "city": "Chievres",
        "country": "Belgium",
        "code": "\\N",
        "latitude": 50.575801849365234,
        "longitude": 3.8310000896453857,
        "altitude": 194.0
    },
    {
        "name": "Koksijde Air Base",
        "city": "Koksijde",
        "country": "Belgium",
        "code": "\\N",
        "latitude": 51.090301513671875,
        "longitude": 2.652780055999756,
        "altitude": 20.0
    },
    {
        "name": "Florennes Air Base",
        "city": "Florennes",
        "country": "Belgium",
        "code": "\\N",
        "latitude": 50.2433013916,
        "longitude": 4.64583015442,
        "altitude": 935.0
    },
    {
        "name": "Wevelgem Airport",
        "city": "Kortrijk-vevelgem",
        "country": "Belgium",
        "code": "KJK",
        "latitude": 50.817199707,
        "longitude": 3.20472002029,
        "altitude": 64.0
    },
    {
        "name": "Li\u00e8ge Airport",
        "city": "Liege",
        "country": "Belgium",
        "code": "LGG",
        "latitude": 50.63740158081055,
        "longitude": 5.443220138549805,
        "altitude": 659.0
    },
    {
        "name": "Ostend-Bruges International Airport",
        "city": "Ostend",
        "country": "Belgium",
        "code": "OST",
        "latitude": 51.198898315399994,
        "longitude": 2.8622200489,
        "altitude": 13.0
    },
    {
        "name": "Zutendaal Air Base",
        "city": "Zutendaal",
        "country": "Belgium",
        "code": "\\N",
        "latitude": 50.9474983215332,
        "longitude": 5.590559959411621,
        "altitude": 312.0
    },
    {
        "name": "Brustem Airfield Sint Truiden",
        "city": "Sint-truiden",
        "country": "Belgium",
        "code": "\\N",
        "latitude": 50.791901,
        "longitude": 5.20167,
        "altitude": 246.0
    },
    {
        "name": "Saint Hubert Air Base",
        "city": "St.-hubert",
        "country": "Belgium",
        "code": "\\N",
        "latitude": 50.034400939941406,
        "longitude": 5.440810203552246,
        "altitude": 1930.0
    },
    {
        "name": "Ursel Air Base",
        "city": "Ursel",
        "country": "Belgium",
        "code": "\\N",
        "latitude": 51.14419937133789,
        "longitude": 3.475559949874878,
        "altitude": 95.0
    },
    {
        "name": "Weelde Air Base",
        "city": "Weelde",
        "country": "Belgium",
        "code": "\\N",
        "latitude": 51.394798278808594,
        "longitude": 4.9601898193359375,
        "altitude": 105.0
    },
    {
        "name": "Zoersel (Oostmalle) Airfield",
        "city": "Zoersel",
        "country": "Belgium",
        "code": "OBL",
        "latitude": 51.264702,
        "longitude": 4.75333,
        "altitude": 53.0
    },
    {
        "name": "Flugplatz Bautzen",
        "city": "Bautzen",
        "country": "Germany",
        "code": "\\N",
        "latitude": 51.193611,
        "longitude": 14.519722,
        "altitude": 568.0
    },
    {
        "name": "Altenburg-Nobitz Airport",
        "city": "Altenburg",
        "country": "Germany",
        "code": "AOC",
        "latitude": 50.981945,
        "longitude": 12.506389,
        "altitude": 640.0
    },
    {
        "name": "Dessau Airfield",
        "city": "Dessau",
        "country": "Germany",
        "code": "\\N",
        "latitude": 51.831694,
        "longitude": 12.190962,
        "altitude": 187.0
    },
    {
        "name": "Eisenh\u00fcttenstadt Airfield",
        "city": "Eisenhuettenstadt",
        "country": "Germany",
        "code": "\\N",
        "latitude": 52.195856,
        "longitude": 14.58753,
        "altitude": 144.0
    },
    {
        "name": "Gro\u00dfenhain Airport",
        "city": "Suhl",
        "country": "Germany",
        "code": "\\N",
        "latitude": 51.30805587768555,
        "longitude": 13.555556297302246,
        "altitude": 417.0
    },
    {
        "name": "Merseburg Airport",
        "city": "Muehlhausen",
        "country": "Germany",
        "code": "\\N",
        "latitude": 51.3630556,
        "longitude": 11.9408333,
        "altitude": 341.0
    },
    {
        "name": "Halle-Oppin Airport",
        "city": "Halle",
        "country": "Germany",
        "code": "\\N",
        "latitude": 51.552223,
        "longitude": 12.053889,
        "altitude": 348.0
    },
    {
        "name": "Riesa-G\u00f6hlis Airport",
        "city": "Riesa",
        "country": "Germany",
        "code": "IES",
        "latitude": 51.2936096191,
        "longitude": 13.3561105728,
        "altitude": 322.0
    },
    {
        "name": "Rechlin-L\u00e4rz Airport",
        "city": "Rechlin-laerz",
        "country": "Germany",
        "code": "REB",
        "latitude": 53.306388855,
        "longitude": 12.7522220612,
        "altitude": 220.0
    },
    {
        "name": "Strausberg Airport",
        "city": "Strausberg",
        "country": "Germany",
        "code": "\\N",
        "latitude": 52.5805549621582,
        "longitude": 13.916666984558105,
        "altitude": 262.0
    },
    {
        "name": "Sch\u00f6nhagen Airport",
        "city": "Schoenhagen",
        "country": "Germany",
        "code": "QXH",
        "latitude": 52.203609,
        "longitude": 13.156389,
        "altitude": 152.0
    },
    {
        "name": "Barth Airport",
        "city": "Barth",
        "country": "Germany",
        "code": "BBH",
        "latitude": 54.338253,
        "longitude": 12.710515,
        "altitude": 23.0
    },
    {
        "name": "Jena-Sch\u00f6ngleina Airfield",
        "city": "Jena",
        "country": "Germany",
        "code": "\\N",
        "latitude": 50.915279,
        "longitude": 11.714444,
        "altitude": 1247.0
    },
    {
        "name": "Kyritz Airport",
        "city": "Kyritz",
        "country": "Germany",
        "code": "\\N",
        "latitude": 52.918888092041016,
        "longitude": 12.425277709960938,
        "altitude": 131.0
    },
    {
        "name": "Magdeburg \"\"City\"\" Airport",
        "city": "Magdeburg",
        "country": "Germany",
        "code": "ZMG",
        "latitude": 52.073612,
        "longitude": 11.626389,
        "altitude": 259.0
    },
    {
        "name": "Rothenburg/G\u00f6rlitz Airport",
        "city": "Rothenburg/ol",
        "country": "Germany",
        "code": "\\N",
        "latitude": 51.36333465576172,
        "longitude": 14.949999809265137,
        "altitude": 518.0
    },
    {
        "name": "Anklam Airfield",
        "city": "Anklam",
        "country": "Germany",
        "code": "\\N",
        "latitude": 53.832779,
        "longitude": 13.668611,
        "altitude": 16.0
    },
    {
        "name": "Cottbus-Drewitz Airport",
        "city": "Cottbus",
        "country": "Germany",
        "code": "CBU",
        "latitude": 51.889442,
        "longitude": 14.531944,
        "altitude": 272.0
    },
    {
        "name": "Kamenz Airport",
        "city": "Kamenz",
        "country": "Germany",
        "code": "\\N",
        "latitude": 51.29694366455078,
        "longitude": 14.1274995803833,
        "altitude": 495.0
    },
    {
        "name": "Berlin-Sch\u00f6nefeld Airport",
        "city": "Berlin",
        "country": "Germany",
        "code": "SXF",
        "latitude": 52.380001,
        "longitude": 13.5225,
        "altitude": 157.0
    },
    {
        "name": "Dresden Airport",
        "city": "Dresden",
        "country": "Germany",
        "code": "DRS",
        "latitude": 51.1328010559082,
        "longitude": 13.767200469970703,
        "altitude": 755.0
    },
    {
        "name": "Erfurt Airport",
        "city": "Erfurt",
        "country": "Germany",
        "code": "ERF",
        "latitude": 50.979801177978516,
        "longitude": 10.958100318908691,
        "altitude": 1036.0
    },
    {
        "name": "Frankfurt am Main Airport",
        "city": "Frankfurt",
        "country": "Germany",
        "code": "FRA",
        "latitude": 50.033333,
        "longitude": 8.570556,
        "altitude": 364.0
    },
    {
        "name": "M\u00fcnster Osnabr\u00fcck Airport",
        "city": "Munster",
        "country": "Germany",
        "code": "FMO",
        "latitude": 52.134601593,
        "longitude": 7.68483018875,
        "altitude": 160.0
    },
    {
        "name": "Hamburg Airport",
        "city": "Hamburg",
        "country": "Germany",
        "code": "HAM",
        "latitude": 53.630401611328,
        "longitude": 9.9882297515869,
        "altitude": 53.0
    },
    {
        "name": "Berlin-Tempelhof International Airport",
        "city": "Berlin",
        "country": "Germany",
        "code": "THF",
        "latitude": 52.472999572753906,
        "longitude": 13.403900146484375,
        "altitude": 167.0
    },
    {
        "name": "Cologne Bonn Airport",
        "city": "Cologne",
        "country": "Germany",
        "code": "CGN",
        "latitude": 50.8658981323,
        "longitude": 7.1427397728,
        "altitude": 302.0
    },
    {
        "name": "D\u00fcsseldorf Airport",
        "city": "Duesseldorf",
        "country": "Germany",
        "code": "DUS",
        "latitude": 51.289501,
        "longitude": 6.76678,
        "altitude": 147.0
    },
    {
        "name": "Munich Airport",
        "city": "Munich",
        "country": "Germany",
        "code": "MUC",
        "latitude": 48.353802,
        "longitude": 11.7861,
        "altitude": 1487.0
    },
    {
        "name": "Nuremberg Airport",
        "city": "Nuernberg",
        "country": "Germany",
        "code": "NUE",
        "latitude": 49.498699,
        "longitude": 11.078056,
        "altitude": 1046.0
    },
    {
        "name": "Leipzig/Halle Airport",
        "city": "Leipzig",
        "country": "Germany",
        "code": "LEJ",
        "latitude": 51.423889,
        "longitude": 12.236389,
        "altitude": 465.0
    },
    {
        "name": "Saarbr\u00fccken Airport",
        "city": "Saarbruecken",
        "country": "Germany",
        "code": "SCN",
        "latitude": 49.214599609400004,
        "longitude": 7.10950994492,
        "altitude": 1058.0
    },
    {
        "name": "Stuttgart Airport",
        "city": "Stuttgart",
        "country": "Germany",
        "code": "STR",
        "latitude": 48.689899444599995,
        "longitude": 9.22196006775,
        "altitude": 1276.0
    },
    {
        "name": "Berlin-Tegel Airport",
        "city": "Berlin",
        "country": "Germany",
        "code": "TXL",
        "latitude": 52.5597,
        "longitude": 13.2877,
        "altitude": 122.0
    },
    {
        "name": "Hannover Airport",
        "city": "Hannover",
        "country": "Germany",
        "code": "HAJ",
        "latitude": 52.461101532,
        "longitude": 9.685079574580001,
        "altitude": 183.0
    },
    {
        "name": "Bremen Airport",
        "city": "Bremen",
        "country": "Germany",
        "code": "BRE",
        "latitude": 53.0475006104,
        "longitude": 8.78666973114,
        "altitude": 14.0
    },
    {
        "name": "Frankfurt-Egelsbach Airport",
        "city": "Egelsbach",
        "country": "Germany",
        "code": "QEF",
        "latitude": 49.959999,
        "longitude": 8.645833,
        "altitude": 384.0
    },
    {
        "name": "Frankfurt-Hahn Airport",
        "city": "Hahn",
        "country": "Germany",
        "code": "HHN",
        "latitude": 49.9487,
        "longitude": 7.26389,
        "altitude": 1649.0
    },
    {
        "name": "Mannheim-City Airport",
        "city": "Mannheim",
        "country": "Germany",
        "code": "MHG",
        "latitude": 49.473057,
        "longitude": 8.514167,
        "altitude": 308.0
    },
    {
        "name": "Allendorf/Eder Airport",
        "city": "Allendorf",
        "country": "Germany",
        "code": "\\N",
        "latitude": 51.03499984741211,
        "longitude": 8.680832862854004,
        "altitude": 1158.0
    },
    {
        "name": "Worms Airport",
        "city": "Worms",
        "country": "Germany",
        "code": "\\N",
        "latitude": 49.606945,
        "longitude": 8.368333,
        "altitude": 295.0
    },
    {
        "name": "Mainz-Finthen Airport",
        "city": "Mainz",
        "country": "Germany",
        "code": "\\N",
        "latitude": 49.967499,
        "longitude": 8.147222,
        "altitude": 525.0
    },
    {
        "name": "Eisenach-Kindel Airport",
        "city": "Eisenach",
        "country": "Germany",
        "code": "EIB",
        "latitude": 50.991604,
        "longitude": 10.47973,
        "altitude": 1112.0
    },
    {
        "name": "Siegerland Airport",
        "city": "Siegerland",
        "country": "Germany",
        "code": "SGE",
        "latitude": 50.707698822021484,
        "longitude": 8.082969665527344,
        "altitude": 1966.0
    },
    {
        "name": "Hamburg-Finkenwerder Airport",
        "city": "Hamburg",
        "country": "Germany",
        "code": "XFW",
        "latitude": 53.5352783203125,
        "longitude": 9.835556030273438,
        "altitude": 23.0
    },
    {
        "name": "Kiel-Holtenau Airport",
        "city": "Kiel",
        "country": "Germany",
        "code": "KEL",
        "latitude": 54.37944412231445,
        "longitude": 10.145277976989746,
        "altitude": 102.0
    },
    {
        "name": "L\u00fcbeck Blankensee Airport",
        "city": "Luebeck",
        "country": "Germany",
        "code": "LBC",
        "latitude": 53.8054008484,
        "longitude": 10.7192001343,
        "altitude": 53.0
    },
    {
        "name": "Flugplatz Dahlemer Binz",
        "city": "Dahlemer Binz",
        "country": "Germany",
        "code": "\\N",
        "latitude": 50.405555725,
        "longitude": 6.5288891792,
        "altitude": 1896.0
    },
    {
        "name": "Meinerzhagen Airport",
        "city": "Meinerzhagen",
        "country": "Germany",
        "code": "\\N",
        "latitude": 51.099998474121094,
        "longitude": 7.599999904632568,
        "altitude": 1549.0
    },
    {
        "name": "Arnsberg-Menden Airport",
        "city": "Arnsberg",
        "country": "Germany",
        "code": "\\N",
        "latitude": 51.483890533447266,
        "longitude": 7.8983330726623535,
        "altitude": 794.0
    },
    {
        "name": "Essen Mulheim Airport",
        "city": "Essen",
        "country": "Germany",
        "code": "ESS",
        "latitude": 51.40230178833008,
        "longitude": 6.9373297691345215,
        "altitude": 424.0
    },
    {
        "name": "Bielefeld Airport",
        "city": "Bielefeld",
        "country": "Germany",
        "code": "BFE",
        "latitude": 51.964722,
        "longitude": 8.544444,
        "altitude": 454.0
    },
    {
        "name": "M\u00f6nchengladbach Airport",
        "city": "Moenchengladbach",
        "country": "Germany",
        "code": "MGL",
        "latitude": 51.230278,
        "longitude": 6.504444,
        "altitude": 125.0
    },
    {
        "name": "Paderborn Lippstadt Airport",
        "city": "Paderborn",
        "country": "Germany",
        "code": "PAD",
        "latitude": 51.614101409899995,
        "longitude": 8.616319656369999,
        "altitude": 699.0
    },
    {
        "name": "Stadtlohn-Vreden Airport",
        "city": "Stadtlohn",
        "country": "Germany",
        "code": "\\N",
        "latitude": 51.99583435058594,
        "longitude": 6.8405561447143555,
        "altitude": 157.0
    },
    {
        "name": "Dortmund Airport",
        "city": "Dortmund",
        "country": "Germany",
        "code": "DTM",
        "latitude": 51.51829910279999,
        "longitude": 7.61223983765,
        "altitude": 425.0
    },
    {
        "name": "Augsburg Airport",
        "city": "Augsburg",
        "country": "Germany",
        "code": "AGB",
        "latitude": 48.425278,
        "longitude": 10.931667,
        "altitude": 1516.0
    },
    {
        "name": "Biberach a.d. Ri\u00df Airfield",
        "city": "Biberach",
        "country": "Germany",
        "code": "\\N",
        "latitude": 48.111111,
        "longitude": 9.762778,
        "altitude": 1903.0
    },
    {
        "name": "Eggenfelden Airport",
        "city": "Eggenfelden",
        "country": "Germany",
        "code": "\\N",
        "latitude": 48.39611053466797,
        "longitude": 12.723610877990723,
        "altitude": 1342.0
    },
    {
        "name": "Mindelheim-Mattsies Airfield",
        "city": "Mindelheim",
        "country": "Germany",
        "code": "\\N",
        "latitude": 48.106945,
        "longitude": 10.525,
        "altitude": 1857.0
    },
    {
        "name": "Oberpfaffenhofen Airport",
        "city": "Oberpfaffenhofen",
        "country": "Germany",
        "code": "OBF",
        "latitude": 48.081402,
        "longitude": 11.2831,
        "altitude": 1947.0
    },
    {
        "name": "Straubing Airport",
        "city": "Straubing",
        "country": "Germany",
        "code": "RBM",
        "latitude": 48.90083312988281,
        "longitude": 12.516667366027832,
        "altitude": 1047.0
    },
    {
        "name": "Vilshofen Airport",
        "city": "Vilshofen",
        "country": "Germany",
        "code": "\\N",
        "latitude": 48.6349983215332,
        "longitude": 13.195555686950684,
        "altitude": 991.0
    },
    {
        "name": "Leutkirch-Unterzeil Airport",
        "city": "Leutkirch",
        "country": "Germany",
        "code": "\\N",
        "latitude": 47.858890533447266,
        "longitude": 10.014166831970215,
        "altitude": 2100.0
    },
    {
        "name": "Friedrichshafen Airport",
        "city": "Friedrichshafen",
        "country": "Germany",
        "code": "FDH",
        "latitude": 47.671298980699994,
        "longitude": 9.51148986816,
        "altitude": 1367.0
    },
    {
        "name": "Schwerin Parchim Airport",
        "city": "Parchim",
        "country": "Germany",
        "code": "SZW",
        "latitude": 53.426998,
        "longitude": 11.7834,
        "altitude": 166.0
    },
    {
        "name": "Stendal-Borstel Airport",
        "city": "Stendal",
        "country": "Germany",
        "code": "\\N",
        "latitude": 52.62888717651367,
        "longitude": 11.818611145019531,
        "altitude": 184.0
    },
    {
        "name": "Aalen-Heidenheim/Elchingen Airport",
        "city": "Aalen-heidenheim",
        "country": "Germany",
        "code": "\\N",
        "latitude": 48.77777862548828,
        "longitude": 10.264721870422363,
        "altitude": 1916.0
    },
    {
        "name": "Bayreuth Airport",
        "city": "Bayreuth",
        "country": "Germany",
        "code": "BYU",
        "latitude": 49.985001,
        "longitude": 11.64,
        "altitude": 1601.0
    },
    {
        "name": "Burg Feuerstein Airport",
        "city": "Burg Feuerstein",
        "country": "Germany",
        "code": "URD",
        "latitude": 49.794166564941,
        "longitude": 11.133610725403,
        "altitude": 1673.0
    },
    {
        "name": "Hof-Plauen Airport",
        "city": "Hof",
        "country": "Germany",
        "code": "HOQ",
        "latitude": 50.288612365722656,
        "longitude": 11.856389045715332,
        "altitude": 1959.0
    },
    {
        "name": "Ha\u00dffurt-Schweinfurt Airport",
        "city": "Hassfurt",
        "country": "Germany",
        "code": "\\N",
        "latitude": 50.0180549621582,
        "longitude": 10.529443740844727,
        "altitude": 719.0
    },
    {
        "name": "Koblenz-Winningen Airfield",
        "city": "Koblenz",
        "country": "Germany",
        "code": "\\N",
        "latitude": 50.325558,
        "longitude": 7.528611,
        "altitude": 640.0
    },
    {
        "name": "Trier-F\u00f6hren Airport",
        "city": "Trier",
        "country": "Germany",
        "code": "\\N",
        "latitude": 49.863888,
        "longitude": 6.7875,
        "altitude": 666.0
    },
    {
        "name": "Speyer Airfield",
        "city": "Speyer",
        "country": "Germany",
        "code": "\\N",
        "latitude": 49.304722,
        "longitude": 8.451389,
        "altitude": 312.0
    },
    {
        "name": "Zweibr\u00fccken Airport",
        "city": "Zweibruecken",
        "country": "Germany",
        "code": "ZQW",
        "latitude": 49.2094,
        "longitude": 7.40056,
        "altitude": 1132.0
    },
    {
        "name": "Donaueschingen-Villingen Airport",
        "city": "Donaueschingen",
        "country": "Germany",
        "code": "ZQL",
        "latitude": 47.97333145139999,
        "longitude": 8.52222156525,
        "altitude": 2231.0
    },
    {
        "name": "Freiburg i. Br. Airport",
        "city": "Freiburg",
        "country": "Germany",
        "code": "\\N",
        "latitude": 48.022777557400005,
        "longitude": 7.83249998093,
        "altitude": 801.0
    },
    {
        "name": "Mengen-Hohentengen Airport",
        "city": "Mengen",
        "country": "Germany",
        "code": "\\N",
        "latitude": 48.053890228271484,
        "longitude": 9.372777938842773,
        "altitude": 1818.0
    },
    {
        "name": "Adolf W\u00fcrth Airport",
        "city": "Schwaebisch Hall",
        "country": "Germany",
        "code": "\\N",
        "latitude": 49.1183319092,
        "longitude": 9.783888816829998,
        "altitude": 1299.0
    },
    {
        "name": "Finsterwalde/Schacksdorf Airport",
        "city": "Soest",
        "country": "Germany",
        "code": "\\N",
        "latitude": 51.607498,
        "longitude": 13.743611,
        "altitude": 384.0
    },
    {
        "name": "Braunschweig-Wolfsburg Airport",
        "city": "Braunschweig",
        "country": "Germany",
        "code": "BWE",
        "latitude": 52.319199,
        "longitude": 10.5561,
        "altitude": 295.0
    },
    {
        "name": "Kassel-Calden Airport",
        "city": "Kassel",
        "country": "Germany",
        "code": "KSF",
        "latitude": 51.417273,
        "longitude": 9.384967,
        "altitude": 820.0
    },
    {
        "name": "Hildesheim Airport",
        "city": "Hildesheim",
        "country": "Germany",
        "code": "\\N",
        "latitude": 52.18138885498047,
        "longitude": 9.946389198303223,
        "altitude": 292.0
    },
    {
        "name": "Bremerhaven Airport",
        "city": "Bremerhaven",
        "country": "Germany",
        "code": "BRV",
        "latitude": 53.506943,
        "longitude": 8.572778,
        "altitude": 10.0
    },
    {
        "name": "Emden Airport",
        "city": "Emden",
        "country": "Germany",
        "code": "EME",
        "latitude": 53.391109,
        "longitude": 7.2275,
        "altitude": 3.0
    },
    {
        "name": "Leer-Papenburg Airport",
        "city": "Leer",
        "country": "Germany",
        "code": "\\N",
        "latitude": 53.271942138671875,
        "longitude": 7.441667079925537,
        "altitude": 3.0
    },
    {
        "name": "Wilhelmshaven-Mariensiel Airport",
        "city": "Wilhelmshaven",
        "country": "Germany",
        "code": "WVN",
        "latitude": 53.502220153808594,
        "longitude": 8.05222225189209,
        "altitude": 16.0
    },
    {
        "name": "Borkum Airport",
        "city": "Borkum",
        "country": "Germany",
        "code": "BMK",
        "latitude": 53.59639,
        "longitude": 6.709167,
        "altitude": 3.0
    },
    {
        "name": "Norderney Airport",
        "city": "Norderney",
        "country": "Germany",
        "code": "NRD",
        "latitude": 53.70694351196289,
        "longitude": 7.230000019073486,
        "altitude": 7.0
    },
    {
        "name": "Flensburg-Sch\u00e4ferhaus Airport",
        "city": "Flensburg",
        "country": "Germany",
        "code": "FLF",
        "latitude": 54.77333450317383,
        "longitude": 9.378889083862305,
        "altitude": 131.0
    },
    {
        "name": "Rendsburg-Schachtholm Airport",
        "city": "Rendsburg",
        "country": "Germany",
        "code": "\\N",
        "latitude": 54.220001220703125,
        "longitude": 9.599444389343262,
        "altitude": 23.0
    },
    {
        "name": "Westerland Sylt Airport",
        "city": "Westerland",
        "country": "Germany",
        "code": "GWT",
        "latitude": 54.9132003784,
        "longitude": 8.34047031403,
        "altitude": 51.0
    },
    {
        "name": "\u00c4mari Air Base",
        "city": "Armari Air Force Base",
        "country": "Estonia",
        "code": "\\N",
        "latitude": 59.26029968261719,
        "longitude": 24.208499908447266,
        "altitude": 65.0
    },
    {
        "name": "K\u00e4rdla Airport",
        "city": "Kardla",
        "country": "Estonia",
        "code": "KDL",
        "latitude": 58.99079895019531,
        "longitude": 22.830699920654297,
        "altitude": 18.0
    },
    {
        "name": "Kuressaare Airport",
        "city": "Kuressaare",
        "country": "Estonia",
        "code": "URE",
        "latitude": 58.22990036010742,
        "longitude": 22.50950050354004,
        "altitude": 14.0
    },
    {
        "name": "P\u00e4rnu Airport",
        "city": "Parnu",
        "country": "Estonia",
        "code": "EPU",
        "latitude": 58.41899871826172,
        "longitude": 24.47279930114746,
        "altitude": 47.0
    },
    {
        "name": "Lennart Meri Tallinn Airport",
        "city": "Tallinn-ulemiste International",
        "country": "Estonia",
        "code": "TLL",
        "latitude": 59.41329956049999,
        "longitude": 24.832799911499997,
        "altitude": 131.0
    },
    {
        "name": "Tartu Airport",
        "city": "Tartu",
        "country": "Estonia",
        "code": "TAY",
        "latitude": 58.3074989319,
        "longitude": 26.690399169900004,
        "altitude": 219.0
    },
    {
        "name": "Enontekio Airport",
        "city": "Enontekio",
        "country": "Finland",
        "code": "ENF",
        "latitude": 68.362602233887,
        "longitude": 23.424299240112,
        "altitude": 1005.0
    },
    {
        "name": "Eura Airport",
        "city": "Eura",
        "country": "Finland",
        "code": "\\N",
        "latitude": 61.1161003112793,
        "longitude": 22.201400756835938,
        "altitude": 259.0
    },
    {
        "name": "Halli Airport",
        "city": "Halli",
        "country": "Finland",
        "code": "KEV",
        "latitude": 61.856039,
        "longitude": 24.786686,
        "altitude": 479.0
    },
    {
        "name": "Helsinki Malmi Airport",
        "city": "Helsinki",
        "country": "Finland",
        "code": "HEM",
        "latitude": 60.254600524902344,
        "longitude": 25.042800903320312,
        "altitude": 57.0
    },
    {
        "name": "Helsinki Vantaa Airport",
        "city": "Helsinki",
        "country": "Finland",
        "code": "HEL",
        "latitude": 60.317199707031,
        "longitude": 24.963300704956,
        "altitude": 179.0
    },
    {
        "name": "Hameenkyro Airport",
        "city": "Hameenkyro",
        "country": "Finland",
        "code": "\\N",
        "latitude": 61.689701080322266,
        "longitude": 23.073699951171875,
        "altitude": 449.0
    },
    {
        "name": "Hanko Airport",
        "city": "Hanko",
        "country": "Finland",
        "code": "\\N",
        "latitude": 59.848899841308594,
        "longitude": 23.083599090576172,
        "altitude": 20.0
    },
    {
        "name": "Hyvink\u00e4\u00e4 Airfield",
        "city": "Hyvinkaa",
        "country": "Finland",
        "code": "HYV",
        "latitude": 60.6543998718,
        "longitude": 24.8810997009,
        "altitude": 430.0
    },